{
   "type":"FeatureCollection",
   "features":[
      {
         "type":"Feature",
         "properties":{
            "NAME":"Schillerpark",
            "URL":"",
            "ADDRESS":"Indische Straße",
            "CITY":"Berlin",
            "ZIP":13347,
            "DISTRICT":"Wedding",
            "sectionID":"bo"
         },
         "geometry":{
            "type":"Point",
            "coordinates":[
               13.351961374282837,
               52.55717708400893
            ]
         }
      },
      {
         "type":"Feature",
         "properties":{
            "NAME":"SWK-Block",
            "URL":"",
            "ADDRESS":"Grüntaler Str. 25",
            "CITY":"Berlin",
            "DISTRICT":"Wedding",
            "ZIP":13357,
            "sectionID":"bo"
         },
         "geometry":{
            "type":"Point",
            "coordinates":[
               13.389742970466614,
               52.554346095657344
            ]
         }
      },
      {
         "type":"Feature",
         "properties":{
            "NAME":"Malmöer Straße",
            "URL":"",
            "ADDRESS":"Malmöer Str. 12",
            "CITY":"Berlin",
            "ZIP":10439,
            "DISTRICT":"Prenzlauer Berg",
            "sectionID":"bo"
         },
         "geometry":{
            "type":"Point",
            "coordinates":[
               13.40426445007324,
               52.55212814307756
            ]
         }
      },
      {
         "type":"Feature",
         "properties":{
            "NAME":"Pappelallee",
            "ADDRESS":"Pappelallee 76",
            "CITY":"Berlin",
            "ZIP":10437,
            "DISTRICT":"Prenzlauer Berg",
            "sectionID":"bo"
         },
         "geometry":{
            "type":"Point",
            "coordinates":[
               13.41492086648941,
               52.543780460839805
            ]
         }
      },
      {
         "type":"Feature",
         "properties":{
            "NAME":"Strelitzer Straße",
            "DISTRICT":"Mitte",
            "ZIP":10115,
            "ADDRESS":"Strelitzer Straße. 12",
            "CITY":"Berlin",
            "sectionID":"bo"
         },
         "geometry":{
            "type":"Point",
            "coordinates":[
               13.396164178848267,
               52.53527456563112
            ]
         }
      },
      {
         "type":"Feature",
         "properties":{
            "NAME":"Volkspark Friedrichshain",
            "URL":"",
            "ADDRESS":"Danziger Str.",
            "CITY":"Berlin",
            "DISTRICT":"Friedrichshain",
            "ZIP":10407,
            "sectionID":"bo"
         },
         "geometry":{
            "type":"Point",
            "coordinates":[
               13.441262841224669,
               52.528078994964545
            ]
         }
      },
      {
         "type":"Feature",
         "properties":{
            "NAME":"Stonehenge Stralauer Allee",
            "ADDRESS":"Stralauer Allee",
            "CITY":"Berlin",
            "ZIP":10245,
            "DISTRICT":"Friedrichshain",
            "sectionID":"bo"
         },
         "geometry":{
            "type":"Point",
            "coordinates":[
               13.450124859809875,
               52.501975778475476
            ]
         }
      },
      {
         "type":"Feature",
         "properties":{
            "NAME":"SE-Block",
            "URL":"",
            "ADDRESS":"Samariterstrasse. 21",
            "CITY":"Berlin",
            "ZIP":10247,
            "DISTRICT":"Friedrichshain",
            "sectionID":"bo"
         },
         "geometry":{
            "type":"Point",
            "coordinates":[
               13.467207849025726,
               52.51991932533701
            ]
         }
      },
      {
         "type":"Feature",
         "properties":{
            "NAME":"Andachtsboulder Levetzowstrasse",
            "URL":"",
            "ADDRESS":"Levetzowstr. 5",
            "CITY":"Berlin",
            "ZIP":10555,
            "DISTRICT":"Moabit",
            "sectionID":"bo"
         },
         "geometry":{
            "type":"Point",
            "coordinates":[
               13.332308828830719,
               52.521641141797055
            ]
         }
      },
      {
         "type":"Feature",
         "properties":{
            "NAME":"Skulpturenpark Tiergarten",
            "URL":"",
            "ADDRESS":"John-Forster-Dulles-Allee",
            "CITY":"Berlin",
            "ZIP":10557,
            "DISTRICT":"Tiergarten",
            "sectionID":"bo"
         },
         "geometry":{
            "type":"Point",
            "coordinates":[
               13.368237018585205,
               52.51661259567853
            ]
         }
      },
      {
         "type":"Feature",
         "properties":{
            "NAME":"Grosse Stele Nationalgalerie",
            "URL":"",
            "ADDRESS":"Reichpietschufer",
            "CITY":"Berlin",
            "ZIP":10785,
            "DISTRICT":"Tiergarten",
            "sectionID":"bo"
         },
         "geometry":{
            "type":"Point",
            "coordinates":[
               13.36822360754013,
               52.50660765190018
            ]
         }
      },
      {
         "type":"Feature",
         "properties":{
            "NAME":"Boulderbrücke",
            "URL":"",
            "ADDRESS":"Marzahner Chaussee",
            "CITY":"Berlin",
            "ZIP":10315,
            "DISTRICT":"Marzahn",
            "sectionID":"bo"
         },
         "geometry":{
            "type":"Point",
            "coordinates":[
               13.525779247283936,
               52.51440579458706
            ]
         }
      },
      {
         "type":"Feature",
         "properties":{
            "NAME":"Burgwarte Flämingstrasse",
            "ADDRESS":"Flämingstrasse",
            "CITY":"Berlin",
            "ZIP":12689,
            "DISTRICT":"Marzahn",
            "sectionID":"bo"
         },
         "geometry":{
            "type":"Point",
            "coordinates":[
               13.56336236000061,
               52.56356244459821
            ]
         }
      },
      {
         "type":"Feature",
         "properties":{
            "NAME":"Boulderbrücken",
            "URL":"",
            "ADDRESS":"Wuhlheide",
            "CITY":"Berlin",
            "ZIP":12459,
            "DISTRICT":"Köpenick",
            "sectionID":"bo"
         },
         "geometry":{
            "type":"Point",
            "coordinates":[
               13.540767431259155,
               52.47143597978414
            ]
         }
      },
      {
         "type":"Feature",
         "properties":{
            "NAME":"Holzturm",
            "ADDRESS":" Am Eichgestell 161",
            "CITY":"Berlin",
            "ZIP":12459,
            "DISTRICT":"Köpenick",
            "sectionID":"bo"
         },
         "geometry":{
            "type":"Point",
            "coordinates":[
               13.54964554309845,
               52.46019831103775
            ]
         }
      },
      {
         "type":"Feature",
         "properties":{
            "NAME":"GFK Turm",
            "URL":"",
            "ADDRESS":" Am Eichgestell 161",
            "CITY":"Berlin",
            "ZIP":12459,
            "DISTRICT":"Köpenick",
            "sectionID":"bo"
         },
         "geometry":{
            "type":"Point",
            "coordinates":[
               13.540273904800415,
               52.460690233557465
            ]
         }
      },
      {
         "type":"Feature",
         "properties":{
            "NAME":"Teltowkanal",
            "ADDRESS":"Am Kanal",
            "CITY":"Berlin",
            "ZIP":12489,
            "DISTRICT":"Adlershof",
            "sectionID":"bo"
         },
         "geometry":{
            "type":"Point",
            "coordinates":[
               13.560548722743986,
               52.42642883606032
            ]
         }
      },
      {
         "type":"Feature",
         "properties":{
            "NAME":"Brücke Rudower Fliess",
            "URL":"",
            "ADDRESS":"Klein-Ziethener Weg 9",
            "CITY":"Berlin",
            "ZIP":12355,
            "DISTRICT":"Neukölln",
            "sectionID":"bo"
         },
         "geometry":{
            "type":"Point",
            "coordinates":[
               13.476319313049316,
               52.40283780245277
            ]
         }
      },
      {
         "type":"Feature",
         "properties":{
            "NAME":"Boulderanlage Tempelhofer Weg",
            "URL":"",
            "ADDRESS":" Tempelhofer Weg",
            "ZIP":10829,
            "CITY":"Berlin",
            "DISTRICT":"Schöneberg",
            "sectionID":"bo"
         },
         "geometry":{
            "type":"Point",
            "coordinates":[
               13.35536241531372,
               52.478395783942766
            ]
         }
      },
      {
         "type":"Feature",
         "properties":{
            "NAME":"Ayers Rock",
            "URL":"",
            "ADDRESS":"Richterstraße",
            "CITY":"Berlin",
            "ZIP":12105,
            "DISTRICT":"Tempelhof",
            "sectionID":"bo"
         },
         "geometry":{
            "type":"Point",
            "coordinates":[
               13.38558554649353,
               52.44169901651066
            ]
         }
      }
   ]
}
