{
  "type": "FeatureCollection",
  "features": [
    {
      "type": "Feature",
      "properties": {
        "NAME": "Ostbloc",
        "URL": "http://www.ostbloc.de/",
        "ADRESS1": "Hauptstrasse 13",
        "CITY": "Berlin",
        "ZIP": 10317,
        "DISTRICT": "Lichtenberg"
      },
      "geometry": {
        "type": "Point",
        "coordinates": [
          13.489584,
          52.491959
        ]
      }
    },
    {
      "type": "Feature",
      "properties": {
        "NAME": "Südbloc",
        "URL": "http://www.suedbloc.de",
        "ADRESS1": "Großbeerenstraße 2–10",
        "CITY": "Berlin",
        "ZIP": 12107,
        "DISTRICT": "Mariendorf"
      },
      "geometry": {
        "type": "Point",
        "coordinates": [
          13.379542,
          52.440076
        ]
      }
    },
    {
      "type": "Feature",
      "properties": {
        "NAME": "Berta Bloc",
        "URL": "http://www.bertablock.de",
        "ADRESS1": "Mühlenstr. 62",
        "CITY": "Berlin",
        "ZIP": 13187,
        "DISTRICT": "Wedding"
      },
      "geometry": {
        "type": "Point",
        "coordinates": [
          13.409714698791504,
          52.563529835311925
        ]
      }
    },
    {
      "type": "Feature",
      "properties": {
        "NAME": "Boulderworx",
        "URL": "http://wwwboulderworx.de",
        "ADRESS1": "Berliner Str. 46",
        "CITY": "Berlin",
        "ZIP": 10713,
        "DISTRICT": "Wilmersdorf"
      },
      "geometry": {
        "type": "Point",
        "coordinates": [
          13.318077027797699,
          52.48670199637066
        ]
      }
    },
    {
      "type": "Feature",
      "properties": {
        "NAME": "Bright Site",
        "URL": "http://www.boulder-project.de",
        "ADRESS1": "Wilhelm-Kabus-Straße 40",
        "CITY": "Berlin",
        "ZIP": 10829,
        "DISTRICT": "Schöneberg"
      },
      "geometry": {
        "type": "Point",
        "coordinates": [
          13.36563527584076,
          52.48172172411882
        ]
      }
    },
    {
      "type": "Feature",
      "properties": {
        "NAME": "Der Kegel",
        "URL": "http://www.derkegel.de",
        "ADRESS1": "Revaler Str. 99",
        "CITY": "Berlin",
        "ZIP": 10245,
        "DISTRICT": "Friedrichshain"
      },
      "geometry": {
        "type": "Point",
        "coordinates": [
          13.454448580741882,
          52.50713170694858
        ]
      }
    }
  ]
}