{
  "type": "FeatureCollection",
  "features": [
    {
      "type": "Feature",
      "id": 0,
      "properties": {
        "NAME": "DAV Kletterzentrum",
        "URL": "www.kletterzentrum.dav-berlin.de",
        "ADDRESS": "Seydlitzstraße 1",
        "CITY": "Berlin",
        "ZIP": 10557,
        "DISTRICT": "Moabit",
        "sectionID": "ci",
        "height": 12,
        "openFrom": 8,
        "openTill": 20
      },
      "geometry": {
        "type": "Point",
        "coordinates": [
          13.362633883953094,
          52.52847225275161
        ]
      }
    },
    {
      "type": "Feature",
      "properties": {
        "NAME": "T-Hall",
        "URL": "www.t-hall.de",
        "ADDRESS": "Thiemannstraße 1",
        "CITY": "Berlin",
        "ZIP": 12059,
        "DISTRICT": "Neukölln",
        "sectionID": "ci",
        "height": 12,
        "openFrom": 8,
        "openTill": 20
      },
      "geometry": {
        "type": "Point",
        "coordinates": [
          13.451417684555054,
          52.47942169014486
        ]
      }
    },
    {
      "type": "Feature",
      "properties": {
        "NAME": "Magic Mountain",
        "ADDRESS": "Böttgerstraße 20-26",
        "ZIP": 13357,
        "CITY": "Berlin",
        "URL": "www.magicmountain.de",
        "DISTRICT": "Wedding",
        "sectionID": "ci",
        "height": 12,
        "openFrom": 8,
        "openTill": 20
      },
      "geometry": {
        "type": "Point",
        "coordinates": [
          13.381980657577515,
          52.548650950609165
        ]
      }
    },
    {
      "type": "Feature",
      "properties": {
        "URL": "www.derkegel.de",
        "NAME": "Der Kegel",
        "ADDRESS": "Revaler Str. 99",
        "CITY": "Berlin",
        "ZIP": 10245,
        "DISTRICT": "Friedrichshain",
        "sectionID": "ci",
        "height": 12,
        "openFrom": 8,
        "openTill": 20
      },
      "geometry": {
        "type": "Point",
        "coordinates": [
          13.45445394515991,
          52.507118646462544
        ]
      }
    }
  ]
}
