{
  "type": "FeatureCollection",
  "features": [
    {
      "type": "Feature",
      "properties": {
        "NAME": "Schwerdter Nordwand",
        "URL": "",
        "ADDRESS": "Schwerdter Straße",
        "CITY": "Berlin",
        "ZIP": 10435,
        "DISTRICT": "Mitte",
        "sectionID": "co",
        "height": 12,
        "openFrom": 0,
        "openTill": 24
      },
      "geometry": {
        "type": "Point",
        "coordinates": [
          13.399583995342255,
          52.548836886259316
        ]
      }
    },
    {
      "type": "Feature",
      "properties": {
        "NAME": "Großer Bunker",
        "ADDRESS": "Humboldthain",
        "DISTRICT": "Wedding",
        "CITY": "Berlin",
        "ZIP": 13355,
        "sectionID": "co",
        "height": 12,
        "openFrom": 0,
        "openTill": 24
      },
      "geometry": {
        "type": "Point",
        "coordinates": [
          13.384743332862852,
          52.547411359476804
        ]
      }
    },
    {
      "type": "Feature",
      "properties": {
        "NAME": "Kleiner Bunker",
        "URL": "",
        "ADDRESS": "Gustav - Mayer - Allee",
        "CITY": "Berlin",
        "ZIP": 13355,
        "DISTRICT": "Wedding",
        "sectionID": "co",
        "height": 12,
        "openFrom": 0,
        "openTill": 24
      },
      "geometry": {
        "type": "Point",
        "coordinates": [
          13.387138545513153,
          52.54411485534667
        ]
      }
    },
    {
      "type": "Feature",
      "properties": {
        "NAME": "Kolle 8",
        "URL": "www.sjc-prenzlauerberg.de",
        "ADDRESS": "Kollwitzstr. 8",
        "CITY": "Berlin",
        "ZIP": 10405,
        "DISTRICT": "Prenzlauer Berg",
        "sectionID": "co",
        "height": 12,
        "openFrom": 0,
        "openTill": 24
      },
      "geometry": {
        "type": "Point",
        "coordinates": [
          13.413982093334198,
          52.531357123371436
        ]
      }
    },
    {
      "type": "Feature",
      "properties": {
        "NAME": "Sportjugendclub Buch",
        "URL": "",
        "ADDRESS": "Karower Chaussee 169C",
        "ZIP": 13125,
        "CITY": "Berlin",
        "DISTRICT": "Pankow",
        "sectionID": "co",
        "height": 12,
        "openFrom": 0,
        "openTill": 24
      },
      "geometry": {
        "type": "Point",
        "coordinates": [
          13.497063517570496,
          52.62487063615305
        ]
      }
    },
    {
      "type": "Feature",
      "properties": {
        "NAME": "Wühletalwächter",
        "URL": "www.alpinclub-berlin.de",
        "ADDRESS": "Kemberger Str.",
        "CITY": "Berlin",
        "ZIP": 12689,
        "DISTRICT": "Marzahn",
        "sectionID": "co",
        "height": 12,
        "openFrom": 0,
        "openTill": 24
      },
      "geometry": {
        "type": "Point",
        "coordinates": [
          13.581622838973999,
          52.56389342748216
        ]
      }
    },
    {
      "type": "Feature",
      "properties": {
        "NAME": "Wilde Hütte Buckow",
        "ADDRESS": "Wildhüterweg 2",
        "CITY": "Berlin",
        "ZIP": 12353,
        "DISTRICT": "Neukölln",
        "sectionID": "co",
        "height": 12,
        "openFrom": 0,
        "openTill": 24
      },
      "geometry": {
        "type": "Point",
        "coordinates": [
          13.456685543060303,
          52.42239536934822
        ]
      }
    },
    {
      "type": "Feature",
      "properties": {
        "NAME": "Kirchbachspitze",
        "URL": "www.dav-berlin.de",
        "ADDRESS": "Alvenslebenstraße",
        "CITY": "Berlin",
        "ZIP": 10783,
        "DISTRICT": "Schöneberg",
        "sectionID": "co",
        "height": 12,
        "openFrom": 0,
        "openTill": 24
      },
      "geometry": {
        "type": "Point",
        "coordinates": [
          13.364691138267517,
          52.495664739002436
        ]
      }
    },
    {
      "type": "Feature",
      "properties": {
        "NAME": "Pallasbunker",
        "URL": "",
        "ADDRESS": "Pallasstrasse",
        "CITY": "Berlin",
        "ZIP": 10781,
        "DISTRICT": "Schöneberg",
        "sectionID": "co",
        "height": 12,
        "openFrom": 0,
        "openTill": 24
      },
      "geometry": {
        "type": "Point",
        "coordinates": [
          13.35563063621521,
          52.49440568846478
        ]
      }
    }
  ]
}
